City_ID,City,Lat,Lng,Max Temp,Humidity,Cloudiness,Wind Speed,Country,Date
0,yarmouth,41.7057,-70.2286,18.34,93,100,3.09,US,1686714786
1,kalashnikovo,57.2824,35.2262,14.33,59,0,0.32,RU,1686714786
2,hami,42.8,93.45,36.19,7,81,2.07,CN,1686714786
3,hobyo,5.3505,48.5268,26.1,82,96,8.93,SO,1686714786
4,adamstown,-25.066,-130.1015,20.1,72,18,0.66,PN,1686714786
5,uusikaupunki,60.8004,21.4084,13.95,64,32,1.03,FI,1686714787
6,qaqortoq,60.7167,-46.0333,3.74,99,100,1.42,GL,1686714787
7,edinburgh of the seven seas,-37.0676,-12.3116,14.94,78,83,13.21,SH,1686714787
8,rongelap,11.1635,166.8941,27.77,82,100,9.15,MH,1686714787
9,severnoye,56.3491,78.3619,14.89,45,8,3.98,RU,1686714787
10,east london,-33.0153,27.9116,18.52,42,0,6.17,ZA,1686714787
11,blackmans bay,-43.0167,147.3167,14.07,73,92,0.67,AU,1686714787
12,port-aux-francais,-49.35,70.2167,6.08,93,99,6.16,TF,1686714787
13,emerald,-23.5333,148.1667,25.75,38,1,1.8,AU,1686714787
14,sur,22.5667,59.5289,32.97,58,100,1.55,OM,1686714788
15,thames,-37.1333,175.5333,11.23,66,0,1.13,NZ,1686714788
16,kittila,67.6647,24.8936,10.34,61,0,1.54,FI,1686714788
17,olonkinbyen,70.9221,-8.7187,2.18,94,100,8.48,SJ,1686714788
18,zorritos,-3.6805,-80.6782,26.16,71,16,0.3,PE,1686714788
19,san luis,-33.295,-66.3356,5.64,23,16,4.78,AR,1686714553
20,port mathurin,-19.6833,63.4167,24.82,82,2,10.78,MU,1686714207
21,jamestown,42.097,-79.2353,12.79,86,100,3.09,US,1686714788
22,tazacorte,28.629,-17.9293,19.54,83,75,4.63,ES,1686714788
23,bredasdorp,-34.5322,20.0403,13.22,89,100,8.89,ZA,1686714788
24,thompson,55.7435,-97.8558,6.09,81,75,0.0,CA,1686714789
25,college,64.8569,-147.8028,17.18,56,75,9.77,US,1686714790
26,tiksi,71.6872,128.8694,2.52,79,40,3.94,RU,1686714790
27,tura,25.5198,90.2201,26.98,83,80,3.17,IN,1686714790
28,waitangi,-43.9535,-176.5597,11.01,95,100,2.68,NZ,1686714790
29,sitka,57.0531,-135.33,10.94,76,100,3.09,US,1686714790
30,nova sintra,14.8667,-24.7167,20.91,84,20,6.72,CV,1686714790
31,vila franca do campo,37.7167,-25.4333,19.23,94,34,2.21,PT,1686714790
32,kapuskasing,49.4169,-82.4331,16.05,94,100,1.54,CA,1686714747
33,boundiali,9.5217,-6.4869,22.29,92,100,1.77,CI,1686714791
34,balqash,46.8481,74.995,21.33,37,0,13.0,KZ,1686714791
35,pankovka,58.5,31.1999,15.86,53,2,0.54,RU,1686714791
36,grytviken,-54.2811,-36.5092,-4.72,83,26,3.69,GS,1686714791
37,iqaluit,63.7506,-68.5145,1.85,74,75,2.06,CA,1686714791
38,najran,17.4924,44.1277,27.36,19,86,1.16,SA,1686714497
39,millersville,39.9979,-76.3541,18.78,73,20,1.54,US,1686714791
40,talnakh,69.4865,88.3972,4.56,69,99,4.62,RU,1686714791
41,anadyr,64.75,177.4833,6.28,48,40,17.88,RU,1686714792
42,pariaman,-0.619,100.12,31.03,71,100,1.6,ID,1686714792
43,hawaiian paradise park,19.5933,-154.9731,25.73,87,100,1.54,US,1686714792
44,bethel,41.3712,-73.414,17.19,78,0,1.54,US,1686714792
45,nabire,-3.3667,135.4833,26.65,85,100,0.21,ID,1686714792
46,port-gentil,-0.7193,8.7815,24.56,88,34,5.8,GA,1686714792
47,polyarnyy,69.1989,33.4478,7.86,69,39,7.28,RU,1686714792
48,devonport,-41.1667,146.35,14.45,80,25,0.89,AU,1686714792
49,whitehorse,60.7161,-135.0538,14.45,46,75,2.06,CA,1686714793
50,keskin,39.6731,33.6136,14.13,84,88,1.89,TR,1686714793
51,atafu village,-8.5421,-172.5159,28.65,75,19,3.94,TK,1686714793
52,smithers,54.7804,-127.1743,19.18,27,20,6.17,CA,1686714793
53,kudahuvadhoo,2.6708,72.8944,28.67,76,95,5.46,MV,1686714793
54,ushuaia,-54.8,-68.3,6.81,61,75,3.09,AR,1686714492
55,punta arenas,-53.15,-70.9167,3.06,93,100,4.63,CL,1686714317
56,lihue,21.9789,-159.3672,26.58,76,100,6.69,US,1686714793
57,rabo de peixe,37.8,-25.5833,18.73,94,75,1.54,PT,1686714793
58,presidente epitacio,-21.7633,-52.1156,11.91,96,100,3.35,BR,1686714793
59,margaret river,-33.95,115.0667,15.07,61,79,4.69,AU,1686714534
60,el fasher,13.6279,25.3494,24.22,72,100,6.16,SD,1686714794
61,rawson,-43.3002,-65.1023,8.4,28,100,3.87,AR,1686714794
62,najaf,31.9985,44.3398,30.88,19,0,3.6,IQ,1686714794
63,hithadhoo,-0.6,73.0833,28.72,74,28,3.19,MV,1686714794
64,mao,39.8885,4.2658,20.31,83,0,6.17,ES,1686714794
65,suda,59.1525,37.5582,13.06,60,15,1.71,RU,1686714794
66,nemuro,43.3236,145.575,13.71,94,99,4.41,JP,1686714794
67,pamandzi,-12.7967,45.2794,23.88,83,0,4.12,YT,1686714794
68,sola,-13.8833,167.55,27.37,89,100,0.0,VU,1686714795
69,rovaniemi,66.5,25.7167,11.67,54,0,2.06,FI,1686714795
70,qiziltepa,40.0331,64.85,32.53,14,0,1.68,UZ,1686714795
71,pokhara,28.2333,83.9833,31.41,40,49,2.57,NP,1686714548
72,isafjordur,66.0755,-23.124,9.07,69,82,1.71,IS,1686714795
73,klyuchi,52.2667,79.1667,15.96,46,0,4.13,RU,1686714795
74,laguna,38.421,-121.4238,24.31,61,0,4.12,US,1686714795
75,moose jaw,50.4001,-105.5344,22.46,39,19,3.44,CA,1686714201
76,novovyazniki,56.1975,42.1711,13.97,72,91,1.87,RU,1686714795
77,guerrero negro,27.9769,-114.0611,16.55,85,99,8.14,MX,1686714343
78,yankton,42.8711,-97.3973,23.14,35,0,1.54,US,1686714796
79,kodiak,57.79,-152.4072,12.73,58,0,3.09,US,1686714796
80,ust-nera,64.5667,143.2,10.48,68,100,2.0,RU,1686714796
81,aasiaat,68.7098,-52.8699,-2.4,83,24,2.41,GL,1686714796
82,maintirano,-18.0667,44.0167,20.21,43,0,2.39,MG,1686714796
83,hadibu,12.65,54.0333,28.22,77,100,11.84,YE,1686714796
84,greymouth,-42.4667,171.2,11.83,75,31,1.15,NZ,1686714796
85,aykhal,66.0,111.5,15.89,33,100,1.25,RU,1686714796
86,remire-montjoly,4.9167,-52.2667,25.02,88,40,0.0,GF,1686714796
87,jamui,24.9167,86.2167,42.79,12,3,6.37,IN,1686714796
88,petra,30.3222,35.4793,21.51,49,1,1.34,JO,1686714797
89,wailua homesteads,22.0669,-159.378,26.24,81,100,6.69,US,1686714797
90,richards bay,-28.783,32.0377,14.3,54,1,3.19,ZA,1686714797
91,enewetak,11.3474,162.3373,27.83,81,100,8.55,MH,1686714797
92,kyabe,9.4515,18.9449,24.21,82,100,1.4,TD,1686714797
93,hermanus,-34.4187,19.2345,13.78,84,100,10.94,ZA,1686714797
94,vicosa,-20.7539,-42.8819,16.18,82,15,1.06,BR,1686714678
95,camana,-16.6228,-72.7111,17.38,86,87,4.98,PE,1686714781
96,yellowknife,62.456,-114.3525,14.29,62,75,3.6,CA,1686714797
97,kuanda,56.3161,116.0806,18.85,28,2,1.27,RU,1686714798
98,constantia,44.1833,28.65,15.39,80,100,6.04,RO,1686714798
99,khuzdar,27.7384,66.6434,29.05,44,89,3.01,PK,1686714798
100,cockburn town,21.4612,-71.1419,27.88,87,29,8.96,TC,1686714798
101,begamganj,23.6,78.3333,34.37,37,2,7.07,IN,1686714798
102,lebu,-37.6167,-73.65,9.79,77,99,4.92,CL,1686714734
103,maun,-19.9833,23.4167,0.98,75,0,0.0,BW,1686714798
104,port saint john's,-31.6229,29.5448,17.68,46,4,2.52,ZA,1686714798
105,urganch,41.55,60.6333,26.97,21,0,4.12,UZ,1686714798
106,nar'yan-mar,67.6713,53.087,7.24,57,100,10.22,RU,1686714799
107,puerto natales,-51.7236,-72.4875,2.99,88,98,1.18,CL,1686714799
108,vorgashor,67.5833,63.95,5.89,65,100,5.53,RU,1686714799
109,north bend,43.4065,-124.2243,14.58,94,100,6.17,US,1686714799
110,geraldton,-28.7667,114.6,20.23,56,40,3.6,AU,1686714799
111,ilulissat,69.2167,-51.1,1.01,86,75,0.51,GL,1686714799
112,papatowai,-46.5619,169.4708,10.16,72,93,0.57,NZ,1686714799
113,avarua,-21.2078,-159.775,21.03,83,75,2.06,CK,1686714799
114,guajara mirim,-10.7828,-65.3394,12.64,84,100,2.67,BR,1686714799
115,puerto aysen,-45.4,-72.7,5.23,98,100,2.04,CL,1686714800
116,isangel,-19.55,169.2667,26.06,61,75,2.57,VU,1686714767
117,newman,37.3138,-121.0208,27.13,40,28,0.89,US,1686714800
118,utrik,11.2278,169.8474,27.91,81,64,9.34,MH,1686714800
119,carnarvon,-24.8667,113.6333,20.09,32,0,7.45,AU,1686714800
120,castillos,-34.1667,-53.8333,5.31,83,4,1.65,UY,1686714800
121,puerto ayora,-0.7393,-90.3518,26.42,89,100,5.36,EC,1686714800
122,kotabumi,-4.8333,104.9,29.75,70,79,1.68,ID,1686714800
123,chateaubourg,48.1112,-1.4002,15.25,92,24,2.9,FR,1686714800
124,preobrazheniye,42.9019,133.9064,18.11,74,74,2.36,RU,1686714800
125,qamdo,31.1667,97.2333,2.17,93,100,0.52,CN,1686714801
126,es castell,39.8795,4.2854,20.38,83,0,6.17,ES,1686714801
127,johvi,59.3592,27.4211,14.78,57,11,2.19,EE,1686714801
128,udachny,66.4167,112.4,19.14,29,100,1.9,RU,1686714801
129,chonchi,-42.6128,-73.8092,7.29,97,100,1.5,CL,1686714801
130,korla,41.7597,86.1469,34.35,13,37,5.57,CN,1686714801
131,colonia,50.9333,6.95,16.64,69,0,1.54,DE,1686714801
132,praia da vitoria,38.7333,-27.0667,20.14,83,20,4.68,PT,1686714801
133,ulsteinvik,62.3432,5.8487,13.51,84,13,0.89,NO,1686714801
134,apolinario saravia,-24.4328,-63.9954,6.43,51,0,2.03,AR,1686714802
135,bilibino,68.0546,166.4372,7.28,38,100,8.69,RU,1686714802
136,st. john's,47.5649,-52.7093,6.61,90,40,5.66,CA,1686714802
137,luderitz,-26.6481,15.1594,11.81,74,0,4.28,NA,1686714802
138,sinabang,2.4803,96.3801,30.0,61,80,2.2,ID,1686714802
139,afaahiti,-17.75,-149.2833,26.93,79,23,9.52,PF,1686714802
140,la grande,45.3246,-118.0877,18.87,67,98,3.45,US,1686714251
141,nuuk,64.1835,-51.7216,1.34,75,40,4.12,GL,1686714802
142,herkimer,43.0256,-74.986,15.01,93,14,0.45,US,1686714504
143,georgetown,5.4112,100.3354,30.96,100,40,1.54,MY,1686714803
144,taltal,-25.4,-70.4833,13.93,70,0,1.57,CL,1686714620
145,simenqian,27.4872,110.8861,26.1,61,100,1.5,CN,1686714803
146,ardestan,33.3761,52.3694,27.91,28,0,2.31,IR,1686714803
147,stanley,54.868,-1.6985,10.39,93,75,1.54,GB,1686714242
148,gouyave,12.1646,-61.7296,28.43,79,20,9.26,GD,1686714803
149,itoman,26.1247,127.6694,24.21,100,75,2.06,JP,1686714803
150,soio,-6.1349,12.3689,22.16,87,62,2.61,AO,1686714803
151,tolanaro,-25.0319,46.9987,15.04,94,40,0.0,MG,1686714803
152,ciamis,-7.3257,108.3534,25.1,88,98,1.65,ID,1686714804
153,anapa,44.8908,37.3239,20.2,93,40,2.0,RU,1686714629
154,acarau,-2.8856,-40.12,25.77,82,20,5.99,BR,1686714804
155,belmonte,-15.8631,-38.8828,22.67,83,6,1.69,BR,1686714804
156,mayya,61.7333,130.2811,8.62,83,100,4.95,RU,1686714804
157,codrington,-38.2667,141.9667,12.54,72,100,5.75,AU,1686714804
158,wuchuan,21.4571,110.7659,30.89,71,99,2.48,CN,1686714804
159,nahiyat ash shinafiyah,31.5874,44.6602,32.52,15,0,4.54,IQ,1686714804
160,stolin,51.8912,26.846,12.92,85,100,1.96,BY,1686714764
161,sho'rchi,38.0141,67.7899,33.69,20,0,2.53,UZ,1686714804
162,badger,64.8,-147.5333,17.14,51,100,9.77,US,1686714805
163,pitimbu,-7.4706,-34.8086,22.33,85,41,4.91,BR,1686714805
164,fonte boa,-2.4959,-66.2662,23.4,98,67,1.32,BR,1686714805
165,chauk,20.8833,94.8167,30.12,62,97,6.69,MM,1686714805
166,saynshand,44.8824,110.1163,31.64,9,2,7.99,MN,1686714805
167,cromer,52.9312,1.2989,13.0,89,2,5.89,GB,1686714805
168,igarka,67.4667,86.5833,7.73,63,94,3.57,RU,1686714805
169,le vauclin,14.5452,-60.8388,28.03,78,20,4.63,MQ,1686714805
170,kyren,51.6828,102.1408,23.25,41,27,1.04,RU,1686714805
171,bongouanou,6.6486,-4.1992,19.71,99,13,0.44,CI,1686714806
172,karratha,-20.7377,116.8463,26.24,23,0,6.12,AU,1686714806
173,ribeira grande,38.5167,-28.7,19.87,94,56,7.6,PT,1686714806
174,la passe,45.5549,-0.8967,19.43,87,30,3.33,FR,1686714806
175,alofi,-19.0595,-169.9187,18.94,94,100,1.54,NU,1686714806
176,hasaki,35.7333,140.8333,25.22,90,100,5.17,JP,1686714806
177,loango,-4.6719,11.8312,23.81,88,75,2.06,CG,1686714806
178,rio grande,-32.035,-52.0986,12.14,63,100,2.92,BR,1686714806
179,porto novo,6.4965,2.6036,26.9,83,99,2.71,BJ,1686714806
180,moapa valley,36.5805,-114.4703,26.42,20,1,2.0,US,1686714807
181,chingirlau,51.095,54.0814,20.93,41,94,7.56,KZ,1686714807
182,rybnoye,54.7256,39.5119,12.75,86,100,2.58,RU,1686714807
183,aripuana,-9.1667,-60.6333,18.23,89,93,2.34,BR,1686714807
184,antalaha,-14.9003,50.2788,21.83,88,7,1.86,MG,1686714807
185,saipan,15.1355,145.701,32.39,100,20,7.2,MP,1686714807
186,mutoko,-17.397,32.2268,11.31,46,1,1.97,ZW,1686714807
187,mahina,-17.5065,-149.489,27.87,65,20,7.2,PF,1686714807
188,tazovsky,67.4667,78.7,7.97,57,100,5.47,RU,1686714807
189,pathankot,32.2833,75.65,35.58,29,88,2.15,IN,1686714808
190,akcakoca,41.0866,31.1162,17.74,90,100,2.08,TR,1686714808
191,puerto baquerizo moreno,-0.9,-89.6,25.5,77,99,7.44,EC,1686714808
192,caleta de carquin,-11.0925,-77.6267,19.86,82,34,4.09,PE,1686714808
193,touros,-5.1989,-35.4608,23.29,90,31,3.65,BR,1686714808
194,yuzhno-kurilsk,44.0306,145.8556,11.07,96,100,2.76,RU,1686714808
195,port alfred,-33.5906,26.891,19.54,43,68,5.36,ZA,1686714808
196,pohang,36.0322,129.365,23.7,64,100,3.06,KR,1686714808
197,sai buri,6.7013,101.6168,30.84,61,64,0.49,TH,1686714809
198,uturoa,-16.7333,-151.4333,27.44,81,15,8.52,PF,1686714809
199,morondava,-20.2833,44.2833,18.35,42,0,3.14,MG,1686714809
200,celestun,20.8667,-90.4,29.01,78,6,5.52,MX,1686714809
201,bamusso,4.4591,8.9027,24.58,90,91,0.3,CM,1686714809
202,barbastro,42.0356,0.1269,15.1,81,50,1.33,ES,1686714809
203,placido de castro,-10.3353,-67.1856,12.71,85,100,2.7,BR,1686714809
204,hammerfest,70.6634,23.6821,7.25,81,75,9.26,NO,1686714809
205,sapele,5.8941,5.6767,23.56,94,100,1.04,NG,1686714809
206,topchikha,52.8192,83.1185,15.06,50,5,3.5,RU,1686714809
207,molteno,-31.3968,26.3625,4.09,83,47,11.73,ZA,1686714810
208,port elizabeth,-33.918,25.5701,19.16,43,0,7.72,ZA,1686714810
209,novyy turtkul',41.55,61.0167,26.95,8,0,5.96,UZ,1686714810
210,chibougamau,49.9168,-74.3659,16.79,77,100,2.57,CA,1686714810
211,albany,42.6001,-73.9662,15.44,82,75,1.02,US,1686714690
212,invercargill,-46.4,168.35,9.49,79,84,1.45,NZ,1686714810
213,dunedin,-45.8742,170.5036,12.67,58,69,2.68,NZ,1686714684
214,dubbo,-32.25,148.6167,14.07,62,40,6.69,AU,1686714630
215,wau,7.7029,27.9953,22.09,91,82,1.72,SS,1686714810
216,flying fish cove,-10.4217,105.6791,26.82,83,100,4.63,CX,1686714811
217,vorkuta,67.5,64.0,6.33,66,100,5.17,RU,1686714811
218,alice springs,-23.7,133.8833,17.75,27,0,4.12,AU,1686714811
219,keflavik,64.0049,-22.5624,7.24,93,0,3.6,IS,1686714811
220,namibe,-15.1961,12.1522,16.86,79,0,1.62,AO,1686714811
221,porto torres,40.835,8.3972,20.1,84,70,1.58,IT,1686714811
222,shimoda,34.6667,138.95,24.2,94,100,5.43,JP,1686714811
223,west island,-12.1568,96.8225,27.99,78,40,9.94,CC,1686714812
224,cill airne,52.05,-9.5167,14.55,94,17,0.88,IE,1686714812
225,hamilton,39.1834,-84.5333,19.13,87,100,2.57,US,1686714511
226,saint-pierre,-21.3393,55.4781,23.65,60,0,2.57,RE,1686714812
227,ushtobe,45.2514,77.9838,25.31,33,100,10.79,KZ,1686714812
228,callao,-12.0667,-77.15,22.16,68,100,4.63,PE,1686714812
229,goiatuba,-18.0125,-49.3547,17.27,87,57,2.15,BR,1686714812
230,turkmenbasy,40.0222,52.9552,31.43,10,0,4.12,TM,1686714813
231,bojia,26.4672,111.9681,26.03,76,99,0.82,CN,1686714813
232,kusel,49.55,7.4,16.13,93,0,0.0,DE,1686714813
233,nova vicosa,-17.8919,-39.3719,22.81,86,0,3.39,BR,1686714813
234,gdov,58.7406,27.8122,15.33,56,1,1.28,RU,1686714813
235,kalabo,-14.97,22.6814,10.38,43,1,2.35,ZM,1686714813
236,zambezi,-13.5432,23.1047,10.78,49,2,2.53,ZM,1686714813
237,dhidhdhoo,6.8833,73.1,29.0,78,100,6.68,MV,1686714813
238,slutsk,53.0274,27.5597,13.08,72,100,2.39,BY,1686714813
239,kerikeri,-35.2268,173.9474,16.62,59,6,0.45,NZ,1686714814
240,susuman,62.7833,148.1667,9.86,74,100,1.31,RU,1686714814
241,chadron,42.8294,-102.9999,16.82,65,20,1.34,US,1686714814
242,choibalsan,48.0667,114.5,23.33,35,81,4.47,MN,1686714814
243,troitskoye,52.9821,84.6757,14.8,55,16,2.78,RU,1686714814
244,xilin hot,43.9667,116.0333,31.74,14,56,4.83,CN,1686714814
245,pisco,-13.7,-76.2167,18.03,82,0,1.54,PE,1686714814
246,bardai,11.65,7.2333,23.3,74,64,1.04,NG,1686714814
247,iquique,-20.2208,-70.1431,17.02,81,34,1.85,CL,1686714814
248,lorengau,-2.0226,147.2712,25.68,89,100,1.34,PG,1686714815
249,manturovo,58.3353,44.7619,16.14,59,0,1.19,RU,1686714815
250,dingwall,57.5953,-4.4272,14.95,96,99,0.91,GB,1686714815
251,karkala,13.2,74.9833,26.9,72,88,1.56,IN,1686714815
252,robertsport,6.7533,-11.3686,26.56,77,99,4.81,LR,1686714815
253,maracacume,-2.0428,-45.9592,22.51,98,33,1.11,BR,1686714815
254,ulladulla,-35.35,150.4667,16.88,41,2,6.06,AU,1686714815
255,bhisho,-32.8472,27.4422,15.35,49,56,4.33,ZA,1686714815
256,minas de marcona,-15.2119,-75.1103,12.48,87,72,6.81,PE,1686714815
257,holualoa,19.6228,-155.9522,26.91,80,20,4.12,US,1686714815
258,prince rupert,54.3161,-130.3201,12.05,82,20,5.66,CA,1686714816
259,coquimbo,-29.9533,-71.3436,8.85,87,0,2.06,CL,1686714693
260,ouro preto do oeste,-10.7481,-62.2158,12.49,82,91,4.15,BR,1686714816
261,becerril,9.7041,-73.2793,26.28,74,96,2.24,CO,1686714816
262,quixere,-5.0742,-37.9886,22.29,79,3,2.3,BR,1686714816
263,santa rita do sapucai,-22.2522,-45.7033,17.82,91,87,0.95,BR,1686714816
264,sawakin,19.1059,37.3321,32.69,33,37,1.76,SD,1686714816
265,longyearbyen,78.2186,15.6401,3.91,65,40,2.57,SJ,1686714816
266,vizinga,61.0749,50.1031,17.85,52,17,4.33,RU,1686714816
267,sovetskaya gavan',48.9723,140.2878,13.79,79,100,2.82,RU,1686714817
268,cruzeiro do sul,-29.5128,-51.9853,11.39,92,100,1.26,BR,1686714817
269,ketchikan,55.3422,-131.6461,14.26,58,20,4.63,US,1686714817
270,palmer,42.1584,-72.3287,18.75,77,40,2.57,US,1686714357
271,teluknaga,-6.0989,106.6381,34.07,66,40,3.6,ID,1686714817
272,barclayville,4.6797,-8.2339,23.8,80,68,0.94,LR,1686714817
273,wanning,18.8003,110.3967,32.07,64,100,5.12,CN,1686714817
274,bandarbeyla,9.4942,50.8122,27.12,69,100,11.01,SO,1686714817
275,siracusa,37.0881,15.2792,21.65,78,75,0.87,IT,1686714744
276,kidal,18.4411,1.4078,29.19,48,70,6.48,ML,1686714818
277,vadso,70.0744,29.7487,9.49,70,20,3.6,NO,1686714818
278,ataq,14.5377,46.8319,26.82,45,98,4.15,YE,1686714818
279,kismayo,-0.3582,42.5454,26.13,79,92,5.94,SO,1686714818
280,ixtapa,20.7,-105.2,24.78,84,1,0.99,MX,1686714818
281,carloforte,39.145,8.3058,20.16,85,92,0.82,IT,1686714818
282,dudinka,69.4058,86.1778,4.79,90,100,3.83,RU,1686714818
283,queenstown,-31.8976,26.8753,8.98,61,7,10.71,ZA,1686714818
284,port lincoln,-34.7333,135.8667,17.08,66,20,9.16,AU,1686714806
285,vilyuchinsk,52.9306,158.4028,26.15,52,17,2.17,RU,1686714819
286,petropavlovsk-kamchatsky,53.0452,158.6483,25.33,31,20,7.0,RU,1686714819
287,qujing,25.4833,103.7833,15.53,93,100,0.59,CN,1686714819
288,mitu,1.1983,-70.1733,22.2,99,100,1.05,CO,1686714819
289,malango,-2.9627,119.9001,25.19,73,100,0.83,ID,1686714819
290,kayangel,8.0823,134.7173,27.2,82,100,6.14,PW,1686714819
291,teknaf,20.8624,92.3058,27.29,85,100,5.21,BD,1686714819
292,hell-ville,-13.4,48.2667,24.23,76,60,2.63,MG,1686714819
293,carroll,39.5501,-77.0164,18.62,76,25,0.45,US,1686714819
294,patong,7.8961,98.2966,32.23,99,82,4.95,TH,1686714819
295,horta,38.5333,-28.6333,19.45,94,58,7.6,PT,1686714820
296,saint-denis,48.9167,2.3333,17.88,72,0,4.63,FR,1686714820
297,lovington,32.944,-103.3485,26.13,13,0,0.89,US,1686714820
298,jamaame,0.0697,42.745,25.79,79,94,4.22,SO,1686714820
299,jiaxing,30.7522,120.75,30.15,42,50,4.88,CN,1686714820
300,broome,42.2506,-75.833,17.04,70,85,0.45,US,1686714820
301,yeniseysk,58.4497,92.1703,10.47,51,55,5.0,RU,1686714820
302,al jawf,29.5,38.75,26.46,31,27,4.51,SA,1686714820
303,zapolyarnyy,69.4154,30.8136,8.6,64,70,4.24,RU,1686714821
304,gurupi,-11.7292,-49.0686,24.89,48,72,1.86,BR,1686714821
305,zara,44.1197,15.2422,16.34,82,20,1.54,HR,1686714821
306,cold lake,54.4502,-110.2017,18.04,72,82,6.78,CA,1686714432
307,aioun,16.6614,-9.6149,32.17,37,25,3.38,MR,1686714821
308,kanniyakumari,8.0833,77.5667,29.86,69,84,9.66,IN,1686714821
309,bich'vinta,43.1592,40.3378,21.1,86,66,3.11,GE,1686714821
310,bidhuna,26.8022,79.5088,40.68,24,28,9.49,IN,1686714821
311,kolokani,13.5728,-8.0339,28.3,59,100,2.42,ML,1686714821
312,biltine,14.5333,20.9167,26.96,57,88,1.7,TD,1686714822
313,rives,45.355,5.4993,16.94,97,100,2.06,FR,1686714822
314,bilajer,40.5681,50.0378,26.9,74,0,2.06,AZ,1686714822
315,papao,-17.75,-149.55,27.82,77,15,9.97,PF,1686714822
316,tofol,5.3248,163.0078,26.88,89,100,1.54,FM,1686714822
317,iskateley,67.6803,53.1512,7.21,57,100,10.2,RU,1686714822
318,turpan,42.9333,89.1667,38.8,9,56,1.02,CN,1686714822
319,ishinomaki,38.4167,141.3,21.0,94,100,2.42,JP,1686714823
320,durazno,-33.4131,-56.5006,3.18,78,0,1.13,UY,1686714823
321,gobabis,-22.45,18.9667,7.99,27,0,4.81,NA,1686714823
322,gao,16.6362,1.637,30.26,47,14,1.17,ML,1686714823
323,harper,4.375,-7.7169,24.41,76,40,2.42,LR,1686714823
324,tres arroyos,-38.3739,-60.2798,4.78,53,61,5.5,AR,1686714823
325,pacific grove,36.6177,-121.9166,15.12,84,100,3.6,US,1686714823
326,pyhajarvi,67.0701,27.2176,12.71,47,24,1.45,FI,1686714823
327,peterhead,57.5058,-1.7981,12.47,92,93,4.08,GB,1686714823
328,fale old settlement,-9.3852,-171.2468,28.74,75,53,3.22,TK,1686714824
329,grand falls-windsor,48.9332,-55.6649,5.84,85,0,0.82,CA,1686714824
330,san fernando,15.0286,120.6898,31.85,59,91,5.23,PH,1686714824
331,le port,-20.9373,55.2919,23.83,82,9,1.89,RE,1686714824
332,altai,46.3722,96.2583,20.23,18,8,3.08,MN,1686714824
333,dunda,-8.1167,34.25,14.38,86,8,1.24,TZ,1686714824
334,suva,-18.1416,178.4415,25.71,83,75,4.12,FJ,1686714824
335,boyolangu,-8.1181,111.8935,27.82,69,58,4.39,ID,1686714824
336,quellon,-43.1167,-73.6167,8.14,93,100,3.09,CL,1686714824
337,mau,25.95,83.55,41.53,14,48,4.92,IN,1686714248
338,susangerd,31.5608,48.1831,34.81,15,0,6.59,IR,1686714825
339,tucuma,-0.1833,-50.05,24.32,92,86,2.64,BR,1686714825
340,fort mcmurray,56.7268,-111.381,17.73,88,100,1.54,CA,1686714825
341,fengxiang,47.5833,130.8333,20.04,80,100,2.42,CN,1686714825
342,puerto madero,14.7208,-92.4215,29.01,76,91,0.26,MX,1686714825
343,yung shue wan,22.2333,114.1167,31.56,82,100,1.34,HK,1686714703
344,port douglas,-16.4833,145.4667,24.83,70,70,3.01,AU,1686714825
345,gadzhiyevo,69.2551,33.3362,7.76,70,43,7.24,RU,1686714825
346,barranca,-10.75,-77.7667,19.82,79,38,3.58,PE,1686714736
347,brisas de zicatela,15.8369,-97.0419,28.92,82,83,2.67,MX,1686714826
348,el bauga,18.262,33.9081,30.38,47,12,7.27,SD,1686714826
349,ancud,-41.8697,-73.8203,7.77,95,100,3.46,CL,1686714826
350,kununurra,-15.7667,128.7333,30.99,23,11,4.12,AU,1686714826
351,margate,51.3813,1.3862,14.94,87,32,1.34,GB,1686714287
352,khandyga,62.6667,135.6,17.27,56,66,2.84,RU,1686714826
353,magadan,59.5667,150.8,12.52,82,58,4.62,RU,1686714826
354,conceicao da barra,-18.5933,-39.7322,21.28,94,1,1.45,BR,1686714826
355,thunder bay,48.4001,-89.3168,16.95,67,40,0.0,CA,1686714687
356,mount pearl,47.5166,-52.7813,6.15,91,40,5.66,CA,1686714826
357,nogliki,51.8333,143.1667,9.17,89,87,4.22,RU,1686714827
358,ha giang,22.8333,104.9833,24.65,95,100,0.59,VN,1686714827
359,sterling heights,42.5803,-83.0302,14.05,92,100,1.54,US,1686714278
360,badiyah,22.45,58.8,37.08,22,100,1.72,OM,1686714827
361,howrah,22.5892,88.3103,35.0,49,20,6.17,IN,1686714623
362,matoury,4.8483,-52.3317,24.98,88,40,0.0,GF,1686714827
363,kutahya,39.4242,29.9833,13.36,91,100,1.3,TR,1686714827
364,sisimiut,66.9395,-53.6735,-0.28,75,10,1.37,GL,1686714827
365,ust-tsilma,65.441,52.1498,7.79,75,91,5.11,RU,1686714827
366,novodvinsk,64.4165,40.8122,12.07,74,49,1.19,RU,1686714828
367,koungheul,13.9833,-14.8,27.22,72,100,5.8,SN,1686714828
368,santa terezinha,-29.9002,-50.0904,13.07,85,100,2.53,BR,1686714828
369,kristiansund,63.1115,7.732,12.03,93,8,2.06,NO,1686714828
370,la palma,33.8464,-118.0467,20.15,77,20,5.66,US,1686714828
371,mil'kovo,55.6078,37.7956,16.08,70,37,2.94,RU,1686714828
372,isabela,6.7085,121.9711,30.03,66,97,1.14,PH,1686714828
373,al burayqah,30.4062,19.5739,21.85,76,0,4.1,LY,1686714828
374,moyynkum,44.2914,72.9469,30.91,22,69,6.94,KZ,1686714828
375,busan,35.1028,129.0403,24.99,53,75,1.03,KR,1686714624
376,yamada,39.4667,141.95,20.31,87,100,2.41,JP,1686714829
377,la'ie,21.6477,-157.9253,27.98,76,19,3.58,US,1686714829
378,pombas,17.1503,-25.0201,22.88,80,44,4.9,CV,1686714829
379,bambari,5.768,20.6757,20.54,97,66,0.73,CF,1686714829
380,puerto santa,-8.9906,-78.6456,20.97,80,33,4.57,PE,1686714829
381,sirte,31.2089,16.5887,23.24,57,3,5.2,LY,1686714829
382,arkhangel'sk,64.5401,40.5433,12.28,72,55,0.99,RU,1686714829
383,manati,18.4275,-66.4921,27.62,89,12,3.4,PR,1686714829
384,visakhapatnam,17.69,83.2093,34.94,49,75,2.06,IN,1686714829
385,weno,7.4515,151.8468,31.97,70,75,4.63,FM,1686714830
386,xacmaz,41.4635,48.806,24.38,72,16,4.91,AZ,1686714830
387,tsiombe,-25.3,45.4833,17.19,85,0,3.04,MG,1686714830
388,san luis de la loma,17.2706,-100.8939,27.6,81,64,2.41,MX,1686714830
389,novokayakent,42.3937,47.9861,23.35,76,52,3.08,RU,1686714830
390,kavieng,-2.5744,150.7967,26.93,80,100,2.54,PG,1686714830
391,rurrenabaque,-14.4413,-67.5278,9.86,97,100,0.82,BO,1686714830
392,dawson creek,55.7666,-120.2362,11.8,87,100,5.66,CA,1686714831
393,manay,7.215,126.5397,29.29,64,97,2.2,PH,1686714831
394,vytegra,61.0064,36.4481,15.17,54,85,2.78,RU,1686714831
395,tateyama,34.9833,139.8667,20.95,93,100,5.19,JP,1686714831
396,vernon,50.2581,-119.2691,19.2,53,100,3.13,CA,1686714831
397,villa ojo de agua,-29.5,-63.6938,4.27,50,0,1.88,AR,1686714831
398,severo-yeniseyskiy,60.3725,93.0408,6.26,66,99,3.94,RU,1686714831
399,cidreira,-30.1811,-50.2056,13.69,82,100,1.28,BR,1686714831
400,arar,30.9753,41.0381,26.01,29,20,3.09,SA,1686714831
401,berdigestyakh,62.0989,126.6992,5.22,95,100,3.52,RU,1686714831
402,magway,20.15,94.9167,29.32,64,99,3.95,MM,1686714832
403,palikir - national government center,6.9248,158.1611,28.47,94,100,3.09,FM,1686714832
404,santyoku,37.4406,129.1708,19.97,83,76,3.55,KR,1686714832
405,lompoc,34.6391,-120.4579,16.68,81,0,1.54,US,1686714832
406,kalix,65.853,23.1565,12.65,54,64,1.08,SE,1686714832
407,poxoreo,-15.8372,-54.3892,10.54,86,100,2.89,BR,1686714832
408,zhangye,38.9342,100.4517,29.45,11,100,2.54,CN,1686714832
409,hirara,24.8,125.2833,28.15,89,75,7.2,JP,1686714832
410,mabaruma,8.2,-59.7833,23.49,97,60,1.25,GY,1686714832
411,rapar,23.5667,70.6333,33.01,50,31,12.31,IN,1686714833
412,vryheid,-27.7695,30.7917,11.03,44,1,6.0,ZA,1686714833
413,arno,60.1167,18.6333,12.66,57,17,1.12,SE,1686714833
414,ouargla,31.9493,5.325,28.04,34,0,3.6,DZ,1686714833
415,christchurch,-43.5333,172.6333,11.38,78,1,5.14,NZ,1686714672
416,katsuren-haebaru,26.3369,127.8719,24.21,100,75,2.06,JP,1686714833
417,waingapu,-9.6567,120.2641,29.07,54,56,6.06,ID,1686714833
418,tari,12.4086,4.4914,27.48,68,100,3.95,NG,1686714833
419,essaouira,31.5125,-9.77,20.72,75,0,5.66,MA,1686714833
420,yacuiba,-22.038,-63.6797,5.08,61,9,1.72,BO,1686714833
421,kutoarjo,-7.7169,109.9128,29.08,66,91,2.94,ID,1686714834
422,nowe,53.6491,18.7272,14.54,81,99,0.92,PL,1686714834
423,barra do garcas,-15.89,-52.2567,16.0,88,27,4.23,BR,1686714834
424,revda,56.801,59.9303,17.32,43,6,2.82,RU,1686714834
425,liuboml,51.226,24.0373,12.06,92,99,1.99,UA,1686714834
426,pimentel,-6.8367,-79.9342,22.16,73,20,4.63,PE,1686714834
427,mount gambier,-37.8333,140.7667,13.92,65,98,4.34,AU,1686714834
428,mascouche,45.7496,-73.5996,18.14,78,97,0.8,CA,1686714835
429,galesong,-5.3166,119.3661,31.01,69,82,1.88,ID,1686714835
430,gisborne,-38.6533,178.0042,10.64,79,96,4.81,NZ,1686714580
431,san antonio de pale,-1.4014,5.6325,24.67,87,53,5.23,GQ,1686714835
432,crane,31.3974,-102.3501,30.6,10,32,4.39,US,1686714835
433,rocky mountain house,52.3668,-114.9188,14.67,94,85,9.14,CA,1686714835
434,tercan,39.7794,40.3925,16.26,61,37,0.67,TR,1686714835
435,muravlenko,63.7898,74.523,15.19,66,100,8.06,RU,1686714835
436,barah,13.7,30.3667,27.79,56,51,3.9,SD,1686714835
437,auburn,47.3073,-122.2284,16.87,68,75,7.2,US,1686714756
438,takoradi,4.8845,-1.7554,24.4,80,19,3.55,GH,1686714836
439,kramfors,62.9316,17.7765,11.88,53,14,1.37,SE,1686714836
440,taroa,8.7058,171.2275,28.79,71,48,7.73,MH,1686714836
441,kingston,17.997,-76.7936,28.53,78,20,6.69,JM,1686714661
442,agadez,19.75,10.25,30.85,35,1,3.04,NE,1686714836
443,merritt,50.1123,-120.7942,11.85,80,96,0.89,CA,1686714836
444,strathmore,51.0501,-113.3852,21.67,42,18,6.48,CA,1686714836
445,langxiang,46.95,128.8833,26.66,40,95,3.7,CN,1686714836
446,ishigaki,24.3448,124.1572,27.07,94,75,8.75,JP,1686714542
447,ballina,-28.8667,153.5667,24.32,33,0,2.54,AU,1686714836
448,inarajan village,13.2736,144.7484,32.54,83,70,6.96,GU,1686714837
449,san patricio,28.017,-97.5169,28.81,86,11,7.51,US,1686714837
450,burutu,5.3509,5.5076,25.32,85,100,1.86,NG,1686714837
451,oume,35.7839,139.2431,23.97,83,75,2.57,JP,1686714837
452,mirny,62.5353,113.9611,20.13,20,40,8.05,RU,1686714837
453,novyy urengoy,66.0833,76.6333,10.81,70,100,4.03,RU,1686714837
454,saldanha,-33.0117,17.9442,15.03,87,100,13.39,ZA,1686714837
455,new norfolk,-42.7826,147.0587,14.72,80,81,0.45,AU,1686714837
456,whistler,50.1164,-122.9695,12.63,94,92,0.38,CA,1686714838
457,usogorsk,63.4106,48.6872,12.08,70,79,4.33,RU,1686714838
458,katsuura,35.1333,140.3,20.87,94,100,5.42,JP,1686714838
459,nieuw amsterdam,5.8833,-55.0833,26.68,88,93,2.87,SR,1686714838
460,ghadamis,30.1337,9.5007,29.26,10,0,1.27,LY,1686714838
461,eyl,7.9803,49.8164,27.05,69,81,9.77,SO,1686714838
462,nassau,40.7507,-73.5829,21.81,74,0,2.88,US,1686714838
463,twon-brass,4.3151,6.2418,26.46,80,99,3.84,NG,1686714838
464,kapa'a,22.0752,-159.319,26.99,81,100,6.69,US,1686714838
465,agde,43.3108,3.4758,19.02,90,100,2.06,FR,1686714839
466,ijebu-igbo,6.9798,4.0033,24.75,89,100,1.1,NG,1686714839
467,kolonia town,6.964,158.206,29.06,94,100,3.09,FM,1686714839
468,chamical,-30.36,-66.314,7.29,47,0,1.41,AR,1686714839
469,chandler,33.3062,-111.8412,32.04,20,0,3.6,US,1686714558
470,tralee,52.2704,-9.7026,14.49,95,16,1.13,IE,1686714839
471,tanah rata,4.475,101.3704,22.6,53,77,1.36,MY,1686714839
472,maumere,-8.6199,122.2111,27.68,62,97,0.43,ID,1686714839
473,midvagur,62.0511,-7.1939,9.46,76,94,0.0,FO,1686714839
474,prieska,-29.6641,22.7474,6.34,66,17,3.99,ZA,1686714840
475,santana,-0.0583,-51.1817,27.1,94,20,2.57,BR,1686714840
476,broken hill,-31.95,141.4333,14.18,48,8,5.29,AU,1686714840
477,dryden,49.7833,-92.7503,13.16,76,0,3.6,CA,1686714840
478,mkushi,-13.6202,29.3939,13.32,49,43,1.25,ZM,1686714840
479,banikoara,11.2985,2.4386,24.95,81,94,1.38,BJ,1686714840
480,corrientes,-27.4806,-58.8341,7.77,79,0,3.09,AR,1686714562
481,salamanca,40.8333,-6.0,13.19,93,41,0.06,ES,1686714840
482,haiku-pauwela,20.9219,-156.3051,28.01,64,20,9.26,US,1686714840
483,okha,53.5739,142.9478,6.43,94,100,6.18,RU,1686714840
484,kailua-kona,19.6406,-155.9956,28.98,80,20,4.12,US,1686714728
485,pekan,3.4836,103.3996,31.06,61,82,0.85,MY,1686714841
486,ciudad lazaro cardenas,17.9583,-102.2,26.81,79,78,2.24,MX,1686714841
487,gombong,-7.6072,109.5142,27.62,72,99,3.52,ID,1686714841
488,acajutla,13.5928,-89.8275,27.34,86,100,2.93,SV,1686714841
489,devils lake,48.1128,-98.8651,22.06,56,20,4.12,US,1686714841
490,slave lake,55.2834,-114.769,15.99,88,100,1.03,CA,1686714841
491,ola,59.5833,151.2833,12.86,78,59,5.6,RU,1686714841
492,muroran,42.3172,140.9881,17.13,87,61,2.2,JP,1686714841
493,fort bragg,35.139,-79.006,23.91,66,0,2.57,US,1686714586
494,kavaratti,10.5669,72.642,29.11,77,100,8.36,IN,1686714842
495,yambio,4.5721,28.3955,19.33,98,89,2.12,SS,1686714842
496,mar del plata,-38.0023,-57.5575,6.64,71,0,2.57,AR,1686714842
497,kulhudhuffushi,6.6221,73.07,28.85,79,100,6.86,MV,1686714842
498,inhambane,-23.865,35.3833,12.99,100,20,0.0,MZ,1686714842
499,silver city,32.7701,-108.2803,19.79,24,0,5.14,US,1686714842
500,funafuti,-8.5243,179.1942,31.0,84,75,7.2,TV,1686714842
501,shabqadar,34.2139,71.5552,29.12,33,0,2.12,PK,1686714842
502,saint-philippe,-21.3585,55.7679,22.77,72,0,0.46,RE,1686714843
503,dzhambeyty,50.2536,52.595,24.82,39,94,8.93,KZ,1686714843
504,elliot lake,46.3834,-82.6331,8.03,93,96,0.7,CA,1686714843
505,monticello,45.3055,-93.7941,21.23,64,75,0.0,US,1686714823
506,bontang,0.1333,117.5,27.89,76,100,0.94,ID,1686714843
507,mili,6.0815,171.735,28.27,81,98,8.39,MH,1686714843
508,kuybyshev,55.4475,78.3218,14.57,51,4,3.64,RU,1686714843
509,sydney,-33.8679,151.2073,19.19,37,0,9.77,AU,1686714039
510,brookings,44.3114,-96.7984,22.32,55,0,2.06,US,1686714844
511,betio village,1.358,172.9211,31.02,77,65,5.54,KI,1686714844
512,tual,-5.6667,132.75,26.87,81,98,8.73,ID,1686714844
513,sandnessjoen,66.0217,12.6316,8.06,81,75,1.54,NO,1686714844
514,rottach-egern,47.7,11.7667,7.74,70,0,1.45,DE,1686714844
515,leland,34.2563,-78.0447,25.06,81,0,3.09,US,1686714664
516,daru,-9.0763,143.2092,26.31,87,99,6.45,PG,1686714844
517,gumel,12.6279,9.3912,27.52,59,97,1.81,NG,1686714844
518,desvres,50.6688,1.8348,14.42,72,64,2.6,FR,1686714845
519,nishinoomote,30.7333,131.0,26.31,83,75,2.57,JP,1686714845
520,encruzilhada do sul,-30.5439,-52.5219,6.33,96,100,2.76,BR,1686714845
521,salinopolis,-0.6136,-47.3561,25.99,86,85,5.01,BR,1686714845
522,luganville,-15.5333,167.1667,26.33,84,94,3.31,VU,1686714845
523,kalemie,-5.9475,29.1947,21.69,64,60,0.51,CD,1686714845
524,bridgewater,44.3835,-64.5155,14.5,95,74,0.89,CA,1686714845
525,heyuan,23.7333,114.6833,26.79,89,99,1.59,CN,1686714845
526,newport,51.5877,-2.9984,17.3,81,5,4.94,GB,1686714846
527,chimbarongo,-34.7,-71.05,1.51,63,32,1.02,CL,1686714846
528,merrillville,41.4828,-87.3328,16.91,93,100,7.72,US,1686714846
529,bintulu,3.1667,113.0333,31.23,74,40,0.0,MY,1686714846
530,sioux city,42.5,-96.4003,21.36,55,0,2.57,US,1686714846
531,charters towers,-20.1,146.2667,26.43,38,30,2.12,AU,1686714846
532,ta`u,-14.2336,-169.5144,27.28,77,46,5.82,AS,1686714846
533,piet retief,-27.0071,30.8132,9.29,52,0,6.41,ZA,1686714846
534,maridi,4.9158,29.4742,19.04,98,74,2.37,SS,1686714846
535,selfoss,63.9331,-20.9971,7.15,74,41,1.62,IS,1686714781
536,fristad,65.2,16.7167,10.06,52,58,1.12,SE,1686714847
537,dalai,45.5,124.3,29.63,29,58,5.94,CN,1686714847
538,ardakan,32.31,54.0175,30.71,21,2,5.07,IR,1686714847
539,selu,19.4667,76.4667,32.79,42,52,6.49,IN,1686714847
540,sevsk,52.1491,34.4926,13.19,86,86,3.96,RU,1686714847
541,orapa,-21.2833,25.3667,7.67,41,0,2.78,BW,1686714333
542,altinyayla,39.2725,36.751,13.43,84,64,1.22,TR,1686714847
543,morehead city,34.7229,-76.726,24.45,89,0,4.12,US,1686714847
544,al kharijah,25.4514,30.5464,27.02,41,0,5.61,EG,1686714847
545,uzgen,40.7699,73.3007,27.16,29,100,0.4,KG,1686714848
546,maralal,1.0968,36.698,15.54,83,46,0.36,KE,1686714848
547,sao joao da barra,-21.6403,-41.0511,21.63,90,12,0.56,BR,1686714848
548,lospalos,-8.5186,127.0025,25.94,61,100,5.19,TL,1686714848
549,andkhoy,36.9529,65.1238,34.96,10,0,2.73,AF,1686714848
550,hilo,19.7297,-155.09,27.38,75,100,1.54,US,1686714848
551,evanston,42.0411,-87.6901,17.1,91,100,3.6,US,1686714848
